name_ja,name_en,lat,lng,elevation,area_id,prefecture_id,meizan_rank
利尻山（利尻富士）,"",45.1786111,141.2419444,1721,"",1,100
羅臼岳,"",44.0758333,145.1222222,1661,"",1,100
斜里岳,"",43.7655555,144.7177777,1547,"",1,100
阿寒岳（雌阿寒岳）,"",43.3866666,144.0088888,1499,"",1,100
大雪山（旭岳）,"",43.6636111,142.8541666,2291,"",1,100
トムラウシ山,"",43.5272222,142.8488888,2141,"",1,100
十勝岳,"",43.4180555,142.6863888,2077,"",1,100
幌尻岳,"",42.7194444,142.6827777,2052,"",1,100
後方羊蹄山（羊蹄山）,"",42.8266666,140.8113888,1898,"",1,100
岩木山,"",40.6558333,140.3030555,1625,"",2,100
八甲田山（大岳）,"",40.6588888,140.8772222,1585,"",2,100
八幡平,"",39.9577777,140.8541666,1613,"",3,100
岩手山,"",39.8525000,141.0011111,2038,"",3,100
早池峰山,"",39.5586111,141.4886111,1917,"",3,100
鳥海山（新山）,"",39.0991666,140.0488888,2236,"",6,100
月山,"",38.5488888,140.0269444,1984,"",6,100
朝日岳（大朝日岳）,"",38.2605555,139.9222222,1871,"",6,100
蔵王山（熊野岳）,"",38.1436111,140.4400000,1841,"",6,100
飯豊山,"",37.8547222,139.7072222,2105,"",7,100
吾妻山（西吾妻山）,"",37.7383333,140.1408333,2035,"",6,100
安達太良山,"",37.6211111,140.2877777,1700,"",7,100
磐梯山,"",37.6008333,140.0722222,1816,"",7,100
駒ヶ岳（会津駒ヶ岳）,"",37.0475000,139.3536111,2133,"",7,100
那須岳（茶臼岳）,"",37.1247222,139.9627777,1915,"",9,100
駒ヶ岳（越後駒ヶ岳）,"",37.1236111,139.0752777,2003,"",15,100
平ヶ岳,"",37.0019444,139.1708333,2141,"",10,100
巻機山,"",36.9786111,138.9641666,1967,"",10,100
燧ヶ岳（柴安嵓）,"",36.9550000,139.2852777,2356,"",7,100
至仏山,"",36.9036111,139.1733333,2228,"",10,100
谷川岳（オキノ耳）,"",36.8372222,138.9300000,1977,"",10,100
雨飾山,"",36.9019444,137.9625000,1963,"",15,100
苗場山,"",36.8458333,138.6902777,2145,"",15,100
妙高山,"",36.8913888,138.1136111,2454,"",15,100
火打山,"",36.9227777,138.0680555,2462,"",15,100
高妻山,"",36.8000000,138.0519444,2353,"",15,100
男体山,"",36.7650000,139.4908333,2486,"",9,100
白根山（日光白根山）,"",36.7986111,139.3758333,2578,"",10,100
皇海山,"",36.6900000,139.3369444,2144,"",9,100
武尊山,"",36.8052777,139.1325000,2158,"",10,100
赤城山（黒檜山）,"",36.5602777,139.1933333,1828,"",10,100
本白根山（草津白根山）,"",36.6227777,138.5319444,2171,"",10,100
四阿山,"",36.5416666,138.4130555,2354,"",20,100
浅間山,"",36.4063888,138.5230555,2568,"",10,100
筑波山,"",36.2252777,140.1066666,877,"",8,100
白馬岳,"",36.7586111,137.7586111,2932,"",16,100
五龍岳,"",36.6583333,137.7527777,2814,"",16,100
鹿島槍ヶ岳,"",36.6244444,137.7469444,2889,"",16,100
剱岳,"",36.6233333,137.6169444,2999,"",16,100
立山（大汝山）,"",36.5758333,137.6197222,3015,"",16,100
薬師岳,"",36.4688888,137.5447222,2926,"",16,100
黒部五郎岳（中ノ俣岳）,"",36.3925000,137.5400000,2840,"",16,100
水晶岳（黒岳）,"",36.4263888,137.6027777,2986,"",16,100
鷲羽岳,"",36.4030555,137.6052777,2924,"",16,100
槍ヶ岳,"",36.3419444,137.6475000,3180,"",20,100
穂高岳（奥穂高岳）,"",36.2891666,137.6480555,3190,"",20,100
常念岳,"",36.3255555,137.7275000,2857,"",20,100
笠ヶ岳,"",36.3155555,137.5502777,2898,"",21,100
焼岳,"",36.2269444,137.5869444,2455,"",20,100
乗鞍岳（剣ヶ峰）,"",36.1063888,137.5536111,3026,"",21,100
御嶽山（剣ヶ峰）,"",35.8927777,137.4802777,3067,"",20,100
美ヶ原（王ヶ頭）,"",36.2258333,138.1075000,2034,"",20,100
霧ヶ峰（車山）,"",36.1030555,138.1966666,1925,"",20,100
蓼科山,"",36.1036111,138.2950000,2531,"",20,100
八ヶ岳（赤岳）,"",35.9708333,138.3700000,2899,"",20,100
両神山,"",36.0233333,138.8413888,1723,"",11,100
雲取山,"",35.8555555,138.9438888,2017,"",11,100
甲武信ヶ岳,"",35.9088888,138.7288888,2475,"",11,100
金峰山,"",35.8713888,138.6252777,2599,"",19,100
瑞牆山,"",35.8933333,138.5919444,2230,"",19,100
大菩薩嶺,"",35.7488888,138.8455555,2057,"",19,100
丹沢山（蛭ヶ岳）,"",35.4863888,139.1388888,1673,"",14,100
富士山（剣ヶ峰）,"",35.3608333,138.7275000,3776,"",19,100
天城山（万三郎岳）,"",34.8627777,139.0016666,1406,"",22,100
駒ヶ岳（木曽駒ヶ岳）,"",35.7894444,137.8044444,2956,"",20,100
空木岳,"",35.7188888,137.8172222,2864,"",20,100
恵那山,"",35.4436111,137.5972222,2191,"",20,100
駒ヶ岳（甲斐駒ヶ岳）,"",35.7580555,138.2366666,2967,"",19,100
仙丈ヶ岳,"",35.7200000,138.1836111,3033,"",19,100
鳳凰山（観音ヶ岳）,"",35.7016666,138.3047222,2841,"",19,100
北岳,"",35.6744444,138.2388888,3193,"",19,100
間ノ岳,"",35.6461111,138.2283333,3190,"",19,100
塩見岳,"",35.5738888,138.1830555,3047,"",20,100
悪沢岳（東岳）,"",35.5008333,138.1825000,3141,"",22,100
赤石岳,"",35.4611111,138.1572222,3121,"",20,100
聖岳（前聖岳）,"",35.4227777,138.1397222,3013,"",20,100
光岳,"",35.3380555,138.0838888,2592,"",22,100
白山（御前峰）,"",36.1550000,136.7713888,2702,"",17,100
荒島岳,"",35.9341666,136.6013888,1523,"",18,100
伊吹山,"",35.4177777,136.4063888,1377,"",25,100
大台ヶ原山（日出ヶ岳）,"",34.1852777,136.1091666,1695,"",29,100
大峰山（八経ヶ岳）,"",34.1736111,135.9075000,1915,"",29,100
大山（剣ヶ峰）,"",35.3711111,133.5461111,1729,"",31,100
剣山,"",33.8536111,134.0941666,1955,"",36,100
石鎚山（天狗岳）,"",33.7677777,133.1150000,1982,"",38,100
くじゅう連山（久住山）,"",33.0822222,131.2408333,1787,"",44,100
祖母山,"",32.8280555,131.3469444,1756,"",44,100
阿蘇山（高岳）,"",32.8844444,131.1038888,1592,"",43,100
霧島山（韓国岳）,"",31.9341666,130.8616666,1700,"",45,100
開聞岳,"",31.1800000,130.5283333,924,"",46,100
宮之浦岳,"",30.3361111,130.5041666,1936,"",46,100